[
  {
    "id": "tkm",
    "name": "Turkmenistan",
    "region": "asi",
    "cat": ["country"],
    "lat": "40",
    "long": "6"
  },
  {
    "id": "tca",
    "name": "Turks and Caicos Islands",
    "cat": ["country"],
    "lat": "21.75",
    "long": "-71.58333333"
  },
  {
    "id": "tuv",
    "name": "Tuvalu",
    "region": "asi",
    "cat": ["country"],
    "lat": "-8",
    "long": "178"
  },
  {
    "id": "uga",
    "name": "Uganda",
    "region": "afr",
    "cat": ["country"],
    "lat": "1",
    "long": "32"
  },
  {
    "id": "ukr",
    "name": "Ukraine",
    "region": "eur",
    "cat": ["country"],
    "lat": "49",
    "long": "32"
  },
  {
    "id": "are",
    "name": "United Arab Emirates",
    "region": "asi",
    "cat": ["country"],
    "lat": "24",
    "long": "54"
  },
  {
    "id": "gbr",
    "name": "United Kingdom",
    "region": "eur",
    "cat": ["country"],
    "lat": "54",
    "long": "-2"
  },
  {
    "id": "usa",
    "name": "United States",
    "region": "ame",
    "cat": ["country"],
    "lat": "38",
    "long": "-97"
  },
  {
    "id": "uzb",
    "name": "Uzbekistan",
    "region": "asi",
    "cat": ["country"],
    "lat": "41",
    "long": "64"
  },
  {
    "id": "wlf",
    "name": "Wallis et Futuna",
    "region": "asi",
    "cat": ["country"]
  },
  {
    "id": "vut",
    "name": "Vanuatu",
    "region": "asi",
    "cat": ["country"],
    "lat": "-16",
    "long": "167"
  },
  {
    "id": "ven",
    "name": "Venezuela",
    "region": "ame",
    "cat": ["country"],
    "lat": "8",
    "long": "-66"
  },
  {
    "id": "pse",
    "name": "West Bank and Gaza",
    "region": "asi",
    "cat": ["country"]
  },
  {
    "id": "_brd",
    "name": "West Germany",
    "region": "eur",
    "cat": ["country"]
  },
  {
    "id": "esh",
    "name": "Western Sahara",
    "region": "afr",
    "cat": ["country"],
    "lat": "24.5",
    "long": "-13"
  },
  {
    "id": "vnm",
    "name": "Vietnam",
    "region": "asi",
    "cat": ["country"],
    "lat": "16.16666666",
    "long": "107.8333333"
  },
  {
    "id": "_noy",
    "name": "North Yemen (former)",
    "region": "asi",
    "cat": ["country"]
  },
  {
    "id": "_soy",
    "name": "South Yemen (former)",
    "region": "asi",
    "cat": ["country"]
  },
  {
    "id": "yem",
    "name": "Yemen",
    "region": "asi",
    "cat": ["country"],
    "lat": "15",
    "long": "48"
  },
  {
    "id": "zmb",
    "name": "Zambia",
    "region": "afr",
    "cat": ["country"],
    "lat": "-15",
    "long": "3"
  },
  {
    "id": "zwe",
    "name": "Zimbabwe",
    "region": "afr",
    "cat": ["country"],
    "lat": "-20",
    "long": "3"
  },
  {
    "id": "sds",
    "name": "South Sudan",
    "region": "afr",
    "cat": ["country"],
    "lat": "7",
    "long": "3"
  },
  {
    "id": "sxm",
    "name": "Sint Maarten (Dutch part)",
    "cat": ["country"]
  },
  {
    "name": "St. Martin (French part)",
    "cat": ["country"]
  },
  {
    "id": "ata",
    "name": "Antarctica",
    "cat": ["country"]
  },
  {
    "id": "_bv",
    "name": "Bouvet Island",
    "cat": ["country"],
    "lat": "-54.43333333",
    "long": "3.4"
  },
  {
    "id": "iot",
    "name": "British Indian Ocean Territory",
    "cat": ["country"],
    "lat": "-6",
    "long": "71.5"
  },
  {
    "id": "fr-cp",
    "name": "Clipperton",
    "cat": ["country"]
  },
  {
    "id": "fr_tf",
    "name": "French Southern and Antarctic Lands",
    "cat": ["country"],
    "lat": "-49.25",
    "long": "69.167"
  },
  {
    "id": "pse_gaz",
    "name": "Gaza Strip",
    "cat": ["country"]
  },
  {
    "id": "_hm",
    "name": "Heard and McDonald Islands",
    "cat": ["country"]
  },
  {
    "name": "Northern Marianas",
    "cat": ["country"]
  },
  {
    "id": "_gs",
    "name": "South Georgia and the South Sandwich Islands",
    "cat": ["country"]
  },
  {
    "id": "_um",
    "name": "US Minor Outlying Islands",
    "cat": ["country"]
  },
  {
    "id": "_vis",
    "name": "Virgin Islands",
    "cat": ["country"]
  },
  {
    "id": "pse_web",
    "name": "West Bank",
    "cat": ["country"]
  },
  {
    "id": "gbg",
    "name": "Guernsey",
    "region": "eur",
    "cat": ["country"],
    "lat": "49.46666666",
    "long": "-2.58333333"
  },
  {
    "id": "gin",
    "name": "Guinea",
    "region": "afr",
    "cat": ["country"],
    "lat": "11",
    "long": "-10"
  },
  {
    "id": "gnb",
    "name": "Guinea-Bissau",
    "region": "afr",
    "cat": ["country"],
    "lat": "12",
    "long": "-15"
  },
  {
    "id": "guy",
    "name": "Guyana",
    "region": "ame",
    "cat": ["country"],
    "lat": "5",
    "long": "-59"
  },
  {
    "id": "hti",
    "name": "Haiti",
    "region": "ame",
    "cat": ["country"],
    "lat": "19",
    "long": "-72.41666666"
  },
  {
    "id": "hnd",
    "name": "Honduras",
    "region": "ame",
    "cat": ["country"],
    "lat": "15",
    "long": "-86.5"
  },
  {
    "id": "hun",
    "name": "Hungary",
    "region": "eur",
    "cat": ["country"],
    "lat": "47",
    "long": "2"
  },
  {
    "id": "isl",
    "name": "Iceland",
    "region": "eur",
    "cat": ["country"],
    "lat": "65",
    "long": "-18"
  },
  {
    "id": "ind",
    "name": "India",
    "region": "asi",
    "cat": ["country"],
    "lat": "20",
    "long": "77"
  },
  {
    "id": "idn",
    "name": "Indonesia",
    "region": "asi",
    "cat": ["country"],
    "lat": "-5",
    "long": "12"
  },
  {
    "id": "irn",
    "name": "Iran",
    "region": "asi",
    "cat": ["country"],
    "lat": "32",
    "long": "53"
  },
  {
    "id": "irq",
    "name": "Iraq",
    "region": "asi",
    "cat": ["country"],
    "lat": "33",
    "long": "44"
  },
  {
    "id": "irl",
    "name": "Ireland",
    "region": "eur",
    "cat": ["country"],
    "lat": "53",
    "long": "-8"
  },
  {
    "id": "gbm",
    "name": "Isle of Man",
    "region": "eur",
    "cat": ["country"],
    "lat": "54.25",
    "long": "-4.5"
  },
  {
    "id": "isr",
    "name": "Israel",
    "region": "asi",
    "cat": ["country"],
    "lat": "31.47",
    "long": "35.13"
  },
  {
    "id": "ita",
    "name": "Italy",
    "region": "eur",
    "cat": ["country"],
    "lat": "42.83333333",
    "long": "12.83333333"
  },
  {
    "id": "jam",
    "name": "Jamaica",
    "region": "ame",
    "cat": ["country"],
    "lat": "18.25",
    "long": "-77.5"
  },
  {
    "id": "jpn",
    "name": "Japan",
    "region": "asi",
    "cat": ["country"],
    "lat": "36",
    "long": "138"
  },
  {
    "id": "jey",
    "name": "Jersey",
    "region": "eur",
    "cat": ["country"],
    "lat": "49.25",
    "long": "-2.16666666"
  },
  {
    "id": "jor",
    "name": "Jordan",
    "region": "asi",
    "cat": ["country"],
    "lat": "31",
    "long": "36"
  },
  {
    "id": "kaz",
    "name": "Kazakhstan",
    "region": "asi",
    "cat": ["country"],
    "lat": "48",
    "long": "68"
  },
  {
    "id": "ken",
    "name": "Kenya",
    "region": "afr",
    "cat": ["country"],
    "lat": "1",
    "long": "38"
  },
  {
    "id": "kir",
    "name": "Kiribati",
    "region": "asi",
    "cat": ["country"],
    "lat": "1.41666666",
    "long": "173"
  },
  {
    "id": "prk",
    "name": "North Korea",
    "region": "asi",
    "cat": ["country"],
    "lat": "40",
    "long": "127"
  },
  {
    "id": "kor",
    "name": "South Korea",
    "region": "asi",
    "cat": ["country"],
    "lat": "37",
    "long": "127.5"
  },
  {
    "id": "kwt",
    "name": "Kuwait",
    "region": "asi",
    "cat": ["country"],
    "lat": "29.5",
    "long": "45.75"
  },
  {
    "id": "lva",
    "name": "Latvia",
    "region": "eur",
    "cat": ["country"],
    "lat": "57",
    "long": "25"
  },
  {
    "id": "lbn",
    "name": "Lebanon",
    "region": "asi",
    "cat": ["country"],
    "lat": "33.83333333",
    "long": "35.83333333"
  },
  {
    "id": "lso",
    "name": "Lesotho",
    "region": "afr",
    "cat": ["country"],
    "lat": "-29.5",
    "long": "28.5"
  },
  {
    "id": "lbr",
    "name": "Liberia",
    "region": "afr",
    "cat": ["country"],
    "lat": "6.5",
    "long": "-9.5"
  },
  {
    "id": "lby",
    "name": "Libya",
    "region": "afr",
    "cat": ["country"],
    "lat": "25",
    "long": "17"
  },
  {
    "id": "lie",
    "name": "Liechtenstein",
    "region": "eur",
    "cat": ["country"],
    "lat": "47.26666666",
    "long": "9.53333333"
  },
  {
    "id": "ltu",
    "name": "Lithuania",
    "region": "eur",
    "cat": ["country"],
    "lat": "56",
    "long": "24"
  },
  {
    "id": "lux",
    "name": "Luxembourg",
    "region": "eur",
    "cat": ["country"],
    "lat": "49.75",
    "long": "6.16666666"
  },
  {
    "id": "mdg",
    "name": "Madagascar",
    "region": "afr",
    "cat": ["country"],
    "lat": "-20",
    "long": "47"
  },
  {
    "id": "mwi",
    "name": "Malawi",
    "region": "afr",
    "cat": ["country"],
    "lat": "-13.5",
    "long": "34"
  },
  {
    "id": "mys",
    "name": "Malaysia",
    "region": "asi",
    "cat": ["country"],
    "lat": "2.5",
    "long": "112.5"
  },
  {
    "id": "mdv",
    "name": "Maldives",
    "region": "asi",
    "cat": ["country"],
    "lat": "3.25",
    "long": "73"
  },
  {
    "id": "mli",
    "name": "Mali",
    "region": "afr",
    "cat": ["country"],
    "lat": "17",
    "long": "-4"
  },
  {
    "id": "mlt",
    "name": "Malta",
    "region": "eur",
    "cat": ["country"],
    "lat": "35.83333333",
    "long": "14.58333333"
  },
  {
    "id": "mhl",
    "name": "Marshall Islands",
    "cat": ["country"],
    "lat": "9",
    "long": "168"
  },
  {
    "id": "mtq",
    "name": "Martinique",
    "region": "ame",
    "cat": ["country"],
    "lat": "14.666667",
    "long": "-61"
  },
  {
    "id": "mrt",
    "name": "Mauritania",
    "region": "afr",
    "cat": ["country"],
    "lat": "20",
    "long": "-12"
  },
  {
    "id": "mus",
    "name": "Mauritius",
    "region": "afr",
    "cat": ["country"],
    "lat": "-20.28333333",
    "long": "57.55"
  },
  {
    "id": "myt",
    "name": "Mayotte",
    "region": "afr",
    "cat": ["country"],
    "lat": "-12.83333333",
    "long": "45.16666666"
  },
  {
    "id": "mex",
    "name": "Mexico",
    "region": "ame",
    "cat": ["country"],
    "lat": "23",
    "long": "-102"
  },
  {
    "id": "fsm",
    "name": "Micronesia",
    "region": "Fed. Sts.",
    "cat": ["country"]
  },
  {
    "id": "mda",
    "name": "Moldova",
    "region": "eur",
    "cat": ["country"],
    "lat": "47",
    "long": "29"
  },
  {
    "id": "mco",
    "name": "Monaco",
    "region": "eur",
    "cat": ["country"],
    "lat": "43.73333333",
    "long": "7.4"
  },
  {
    "id": "mng",
    "name": "Mongolia",
    "region": "asi",
    "cat": ["country"],
    "lat": "46",
    "long": "105"
  },
  {
    "id": "mne",
    "name": "Montenegro",
    "region": "eur",
    "cat": ["country"],
    "lat": "42.5",
    "long": "19.3"
  },
  {
    "id": "msr",
    "name": "Montserrat",
    "region": "ame",
    "cat": ["country"],
    "lat": "16.75",
    "long": "-62.2"
  },
  {
    "id": "mar",
    "name": "Morocco",
    "region": "afr",
    "cat": ["country"],
    "lat": "32",
    "long": "-5"
  },
  {
    "id": "moz",
    "name": "Mozambique",
    "region": "afr",
    "cat": ["country"],
    "lat": "-18.25",
    "long": "35"
  },
  {
    "id": "mmr",
    "name": "Myanmar",
    "region": "asi",
    "cat": ["country"],
    "lat": "22",
    "long": "98"
  },
  {
    "id": "nam",
    "name": "Namibia",
    "region": "afr",
    "cat": ["country"],
    "lat": "-22",
    "long": "17"
  },
  {
    "id": "nru",
    "name": "Nauru",
    "region": "asi",
    "cat": ["country"],
    "lat": "-0.53333333",
    "long": "166.9166667"
  },
  {
    "id": "npl",
    "name": "Nepal",
    "region": "asi",
    "cat": ["country"],
    "lat": "28",
    "long": "84"
  },
  {
    "id": "nld",
    "name": "Netherlands",
    "region": "eur",
    "cat": ["country"],
    "lat": "52.5",
    "long": "5.75"
  },
  {
    "id": "ncl",
    "name": "New Caledonia",
    "region": "asi",
    "cat": ["country"],
    "lat": "-21.5",
    "long": "165.5"
  },
  {
    "id": "nzl",
    "name": "New Zealand",
    "region": "asi",
    "cat": ["country"],
    "lat": "-41",
    "long": "174"
  },
  {
    "id": "_ngo",
    "name": "Ngorno-Karabakh",
    "region": "eur",
    "cat": ["country"]
  },
  {
    "id": "nic",
    "name": "Nicaragua",
    "region": "ame",
    "cat": ["country"],
    "lat": "13",
    "long": "-85"
  },
  {
    "id": "ner",
    "name": "Niger",
    "region": "afr",
    "cat": ["country"],
    "lat": "16",
    "long": "8"
  },
  {
    "id": "nga",
    "name": "Nigeria",
    "region": "afr",
    "cat": ["country"],
    "lat": "10",
    "long": "8"
  },
  {
    "id": "niu",
    "name": "Niue",
    "region": "asi",
    "cat": ["country"],
    "lat": "-19.03333333",
    "long": "-169.8666667"
  },
  {
    "id": "nfk",
    "name": "Norfolk Island",
    "region": "asi",
    "cat": ["country"],
    "lat": "-29.03333333",
    "long": "167.95"
  },
  {
    "id": "_ncy",
    "name": "Northern Cyprus",
    "region": "eur",
    "cat": ["country"]
  },
  {
    "id": "mnp",
    "name": "Northern Mariana Islands",
    "cat": ["country"],
    "lat": "15.2",
    "long": "145.75"
  },
  {
    "id": "nor",
    "name": "Norway",
    "region": "eur",
    "cat": ["country"],
    "lat": "62",
    "long": "1"
  },
  {
    "id": "omn",
    "name": "Oman",
    "region": "asi",
    "cat": ["country"],
    "lat": "21",
    "long": "57"
  },
  {
    "id": "pak",
    "name": "Pakistan",
    "region": "asi",
    "cat": ["country"],
    "lat": "30",
    "long": "7"
  },
  {
    "id": "plw",
    "name": "Palau",
    "region": "asi",
    "cat": ["country"],
    "lat": "7.5",
    "long": "134.5"
  },
  {
    "id": "pan",
    "name": "Panama",
    "region": "ame",
    "cat": ["country"],
    "lat": "9",
    "long": "-80"
  },
  {
    "id": "png",
    "name": "Papua New Guinea",
    "region": "asi",
    "cat": ["country"],
    "lat": "-6",
    "long": "147"
  },
  {
    "id": "phl",
    "name": "Philippines",
    "region": "asi",
    "cat": ["country"],
    "lat": "13",
    "long": "122"
  },
  {
    "id": "pol",
    "name": "Poland",
    "region": "eur",
    "cat": ["country"],
    "lat": "52",
    "long": "2"
  },
  {
    "id": "prt",
    "name": "Portugal",
    "region": "eur",
    "cat": ["country"],
    "lat": "39.5",
    "long": "-8"
  },
  {
    "id": "pri",
    "name": "Puerto Rico",
    "region": "ame",
    "cat": ["country"],
    "lat": "18.25",
    "long": "-66.5"
  },
  {
    "id": "qat",
    "name": "Qatar",
    "region": "asi",
    "cat": ["country"],
    "lat": "25.5",
    "long": "51.25"
  },
  {
    "id": "reu",
    "name": "Reunion",
    "region": "afr",
    "cat": ["country"]
  },
  {
    "id": "rou",
    "name": "Romania",
    "region": "eur",
    "cat": ["country"],
    "lat": "46",
    "long": "25"
  },
  {
    "id": "rus",
    "name": "Russia",
    "region": "eur",
    "cat": ["country"],
    "lat": "60",
    "long": "1"
  },
  {
    "id": "rwa",
    "name": "Rwanda",
    "region": "afr",
    "cat": ["country"],
    "lat": "-2",
    "long": "3"
  },
  {
    "id": "_stb",
    "name": "St. Barth�lemy",
    "region": "ame",
    "cat": ["country"]
  },
  {
    "id": "shn",
    "name": "St. Helena",
    "region": "afr",
    "cat": ["country"]
  },
  {
    "id": "kna",
    "name": "St. Kitts and Nevis",
    "cat": ["country"]
  },
  {
    "id": "lca",
    "name": "St. Lucia",
    "region": "ame",
    "cat": ["country"]
  },
  {
    "id": "_stm",
    "name": "St. Martin",
    "region": "ame",
    "cat": ["country"]
  },
  {
    "id": "vct",
    "name": "St. Vincent and the Grenadines",
    "cat": ["country"]
  },
  {
    "id": "spm",
    "name": "St.-Pierre-et-Miquelon",
    "cat": ["country"]
  },
  {
    "id": "wsm",
    "name": "Samoa",
    "region": "asi",
    "cat": ["country"],
    "lat": "-13.58333333",
    "long": "-172.3333333"
  },
  {
    "id": "smr",
    "name": "San Marino",
    "region": "eur",
    "cat": ["country"],
    "lat": "43.76666666",
    "long": "12.41666666"
  },
  {
    "id": "stp",
    "name": "Sao Tome and Principe",
    "region": "afr",
    "cat": ["country"]
  },
  {
    "id": "sau",
    "name": "Saudi Arabia",
    "region": "asi",
    "cat": ["country"],
    "lat": "25",
    "long": "45"
  },
  {
    "id": "sen",
    "name": "Senegal",
    "region": "afr",
    "cat": ["country"],
    "lat": "14",
    "long": "-14"
  },
  {
    "id": "srb",
    "name": "Serbia",
    "region": "eur",
    "cat": ["country"],
    "lat": "44",
    "long": "21"
  },
  {
    "id": "scg",
    "name": "Serbia and Montenegro",
    "cat": ["country"]
  },
  {
    "id": "_srbek",
    "name": "Serbia excluding Kosovo",
    "cat": ["country"]
  },
  {
    "id": "syc",
    "name": "Seychelles",
    "region": "afr",
    "cat": ["country"],
    "lat": "-4.58333333",
    "long": "55.66666666"
  },
  {
    "id": "sle",
    "name": "Sierra Leone",
    "region": "afr",
    "cat": ["country"],
    "lat": "8.5",
    "long": "-11.5"
  },
  {
    "id": "sgp",
    "name": "Singapore",
    "region": "asi",
    "cat": ["country"],
    "lat": "1.36666666",
    "long": "103.8"
  },
  {
    "id": "svk",
    "name": "Slovak Republic",
    "region": "eur",
    "cat": ["country"]
  },
  {
    "id": "svn",
    "name": "Slovenia",
    "region": "eur",
    "cat": ["country"],
    "lat": "46.11666666",
    "long": "14.81666666"
  },
  {
    "id": "slb",
    "name": "Solomon Islands",
    "region": "asi",
    "cat": ["country"],
    "lat": "-8",
    "long": "159"
  },
  {
    "id": "som",
    "name": "Somalia",
    "region": "afr",
    "cat": ["country"],
    "lat": "10",
    "long": "49"
  },
  {
    "id": "_sol",
    "name": "Somaliland",
    "region": "afr",
    "cat": ["country"]
  },
  {
    "id": "zaf",
    "name": "South Africa",
    "region": "afr",
    "cat": ["country"],
    "lat": "-29",
    "long": "24"
  },
  {
    "id": "_sos",
    "name": "South Ossetia",
    "region": "eur",
    "cat": ["country"]
  },
  {
    "id": "esp",
    "name": "Spain",
    "region": "eur",
    "cat": ["country"],
    "lat": "40",
    "long": "-4"
  },
  {
    "id": "lka",
    "name": "Sri Lanka",
    "region": "asi",
    "cat": ["country"],
    "lat": "7",
    "long": "81"
  },
  {
    "id": "sdn",
    "name": "Sudan",
    "region": "afr",
    "cat": ["country"],
    "lat": "15",
    "long": "3"
  },
  {
    "id": "sur",
    "name": "Suriname",
    "region": "ame",
    "cat": ["country"],
    "lat": "4",
    "long": "-56"
  },
  {
    "id": "sjm",
    "name": "Svalbard",
    "region": "eur",
    "cat": ["country"]
  },
  {
    "id": "swz",
    "name": "Swaziland",
    "region": "afr",
    "cat": ["country"],
    "lat": "-26.5",
    "long": "31.5"
  },
  {
    "id": "swe",
    "name": "Sweden",
    "region": "eur",
    "cat": ["country"],
    "lat": "62",
    "long": "15"
  },
  {
    "id": "che",
    "name": "Switzerland",
    "region": "eur",
    "cat": ["country"],
    "lat": "47",
    "long": "8"
  },
  {
    "id": "syr",
    "name": "Syria",
    "region": "asi",
    "cat": ["country"],
    "lat": "35",
    "long": "38"
  },
  {
    "id": "twn",
    "name": "Taiwan",
    "region": "asi",
    "cat": ["country"],
    "lat": "23.5",
    "long": "121"
  },
  {
    "id": "tjk",
    "name": "Tajikistan",
    "region": "asi",
    "cat": ["country"],
    "lat": "39",
    "long": "71"
  },
  {
    "id": "tza",
    "name": "Tanzania",
    "region": "afr",
    "cat": ["country"],
    "lat": "-6",
    "long": "35"
  },
  {
    "id": "tha",
    "name": "Thailand",
    "region": "asi",
    "cat": ["country"],
    "lat": "15",
    "long": "1"
  },
  {
    "id": "tls",
    "name": "Timor-Leste",
    "region": "asi",
    "cat": ["country"],
    "lat": "-8.83333333",
    "long": "125.9166667"
  },
  {
    "id": "tgo",
    "name": "Togo",
    "region": "afr",
    "cat": ["country"],
    "lat": "8",
    "long": "1.16666666"
  },
  {
    "id": "tkl",
    "name": "Tokelau",
    "region": "asi",
    "cat": ["country"]
  },
  {
    "id": "ton",
    "name": "Tonga",
    "region": "asi",
    "cat": ["country"]
  },
  {
    "id": "_tra",
    "name": "Transnistria",
    "region": "eur",
    "cat": ["country"]
  },
  {
    "id": "tto",
    "name": "Trinidad and Tobago",
    "region": "ame",
    "cat": ["country"],
    "lat": "11",
    "long": "-61"
  },
  {
    "id": "tun",
    "name": "Tunisia",
    "region": "afr",
    "cat": ["country"],
    "lat": "34",
    "long": "9"
  },
  {
    "id": "tur",
    "name": "Turkey",
    "region": "eur",
    "cat": ["country"],
    "lat": "39",
    "long": "35"
  },
  {
    "id": "ury",
    "name": "Uruguay",
    "region": "ame",
    "cat": ["country"]
  },
  {
    "id": "_ussr",
    "name": "USSR",
    "region": "eur",
    "cat": ["country"]
  },
  {
    "id": "vir",
    "name": "Virgin Islands (U.S.)",
    "cat": ["country"]
  },
  {
    "id": "_yug",
    "name": "Yugoslavia",
    "region": "eur",
    "cat": ["country"]
  },
  {
    "id": "ala",
    "name": "Åland",
    "region": "eur",
    "cat": ["country"]
  },
  {
    "id": "nl-cw",
    "name": "Curaçao",
    "region": "ame",
    "cat": ["country"]
  },
  {
    "id": "world",
    "name": "World",
    "cat": ["planet"]
  },
  {
    "id": "afr",
    "name": "Africa",
    "cat": ["region"]
  },
  {
    "id": "asi",
    "name": "Asia",
    "cat": ["region"]
  },
  {
    "id": "ame",
    "name": "America",
    "cat": ["region"]
  },
  {
    "id": "eur",
    "name": "Europe",
    "cat": ["region"]
  },
  {
    "id": "_abk",
    "name": "Abkhazia",
    "region": "eur",
    "cat": ["country"]
  },
  {
    "id": "afg",
    "name": "Afghanistan",
    "region": "asi",
    "cat": ["country"],
    "lat": "33",
    "long": "65"
  },
  {
    "id": "_akr",
    "name": "Akrotiri and Dhekelia",
    "cat": ["country"]
  },
  {
    "id": "alb",
    "name": "Albania",
    "region": "eur",
    "cat": ["country"],
    "lat": "41",
    "long": "2"
  },
  {
    "id": "dza",
    "name": "Algeria",
    "region": "afr",
    "cat": ["country"],
    "lat": "28",
    "long": "3"
  },
  {
    "id": "asm",
    "name": "American Samoa",
    "region": "asi",
    "cat": ["country"],
    "lat": "-14.33333333",
    "long": "-170"
  },
  {
    "id": "and",
    "name": "Andorra",
    "region": "eur",
    "cat": ["country"],
    "lat": "42.5",
    "long": "1.5"
  },
  {
    "id": "ago",
    "name": "Angola",
    "region": "afr",
    "cat": ["country"],
    "lat": "-12.5",
    "long": "18.5"
  },
  {
    "id": "aia",
    "name": "Anguilla",
    "region": "ame",
    "cat": ["country"],
    "lat": "18.25",
    "long": "-63.16666666"
  },
  {
    "id": "atg",
    "name": "Antigua and Barbuda",
    "region": "ame",
    "cat": ["country"],
    "lat": "17.05",
    "long": "-61.8"
  },
  {
    "id": "arg",
    "name": "Argentina",
    "region": "ame",
    "cat": ["country"]
  },
  {
    "id": "arm",
    "name": "Armenia",
    "region": "eur",
    "cat": ["country"],
    "lat": "40",
    "long": "45"
  },
  {
    "id": "abw",
    "name": "Aruba",
    "region": "ame",
    "cat": ["country"],
    "lat": "12.5",
    "long": "-69.96666666"
  },
  {
    "id": "aus",
    "name": "Australia",
    "region": "asi",
    "cat": ["country"],
    "lat": "-27",
    "long": "133"
  },
  {
    "id": "aut",
    "name": "Austria",
    "region": "eur",
    "cat": ["country"],
    "lat": "47.33333333",
    "long": "13.33333333"
  },
  {
    "id": "aze",
    "name": "Azerbaijan",
    "region": "eur",
    "cat": ["country"],
    "lat": "40.5",
    "long": "47.5"
  },
  {
    "id": "bhs",
    "name": "Bahamas",
    "region": "ame",
    "cat": ["country"],
    "lat": "24.25",
    "long": "-76"
  },
  {
    "id": "bhr",
    "name": "Bahrain",
    "region": "asi",
    "cat": ["country"],
    "lat": "26",
    "long": "50.55"
  },
  {
    "id": "bgd",
    "name": "Bangladesh",
    "region": "asi",
    "cat": ["country"],
    "lat": "24",
    "long": "9"
  },
  {
    "id": "brb",
    "name": "Barbados",
    "region": "ame",
    "cat": ["country"],
    "lat": "13.16666666",
    "long": "-59.53333333"
  },
  {
    "id": "blr",
    "name": "Belarus",
    "region": "eur",
    "cat": ["country"],
    "lat": "53",
    "long": "28"
  },
  {
    "id": "bel",
    "name": "Belgium",
    "region": "eur",
    "cat": ["country"],
    "lat": "50.83333333",
    "long": "4"
  },
  {
    "id": "blz",
    "name": "Belize",
    "region": "ame",
    "cat": ["country"],
    "lat": "17.25",
    "long": "-88.75"
  },
  {
    "id": "ben",
    "name": "Benin",
    "region": "afr",
    "cat": ["country"],
    "lat": "9.5",
    "long": "2.25"
  },
  {
    "id": "bmu",
    "name": "Bermuda",
    "region": "ame",
    "cat": ["country"],
    "lat": "32.33333333",
    "long": "-64.75"
  },
  {
    "id": "btn",
    "name": "Bhutan",
    "region": "asi",
    "cat": ["country"],
    "lat": "27.5",
    "long": "90.5"
  },
  {
    "id": "bol",
    "name": "Bolivia",
    "region": "ame",
    "cat": ["country"]
  },
  {
    "id": "bih",
    "name": "Bosnia and Herzegovina",
    "region": "eur",
    "cat": ["country"],
    "lat": "44",
    "long": "18"
  },
  {
    "id": "bwa",
    "name": "Botswana",
    "region": "afr",
    "cat": ["country"],
    "lat": "-22",
    "long": "24"
  },
  {
    "id": "bra",
    "name": "Brazil",
    "region": "ame",
    "cat": ["country"]
  },
  {
    "id": "vgb",
    "name": "British Virgin Islands",
    "cat": ["country"],
    "lat": "18.431383",
    "long": "-64.62305"
  },
  {
    "id": "brn",
    "name": "Brunei",
    "region": "asi",
    "cat": ["country"],
    "lat": "4.5",
    "long": "114.6666667"
  },
  {
    "id": "bgr",
    "name": "Bulgaria",
    "region": "eur",
    "cat": ["country"],
    "lat": "43",
    "long": "25"
  },
  {
    "id": "bfa",
    "name": "Burkina Faso",
    "region": "afr",
    "cat": ["country"],
    "lat": "13",
    "long": "-2"
  },
  {
    "id": "bdi",
    "name": "Burundi",
    "region": "afr",
    "cat": ["country"],
    "lat": "-3.5",
    "long": "30"
  },
  {
    "id": "khm",
    "name": "Cambodia",
    "region": "asi",
    "cat": ["country"],
    "lat": "13",
    "long": "105"
  },
  {
    "id": "cmr",
    "name": "Cameroon",
    "region": "afr",
    "cat": ["country"],
    "lat": "6",
    "long": "12"
  },
  {
    "id": "can",
    "name": "Canada",
    "region": "ame",
    "cat": ["country"],
    "lat": "60",
    "long": "-95"
  },
  {
    "id": "cpv",
    "name": "Cape Verde",
    "region": "afr",
    "cat": ["country"],
    "lat": "16",
    "long": "-24"
  },
  {
    "id": "cym",
    "name": "Cayman Islands",
    "cat": ["country"],
    "lat": "19.5",
    "long": "-80.5"
  },
  {
    "id": "caf",
    "name": "Central African Republic",
    "region": "afr",
    "cat": ["country"],
    "lat": "7",
    "long": "21"
  },
  {
    "id": "tcd",
    "name": "Chad",
    "region": "afr",
    "cat": ["country"],
    "lat": "15",
    "long": "19"
  },
  {
    "id": "_cis",
    "name": "Channel Islands",
    "cat": ["country"]
  },
  {
    "id": "chl",
    "name": "Chile",
    "region": "ame",
    "cat": ["country"]
  },
  {
    "id": "chn",
    "name": "China",
    "region": "asi",
    "cat": ["country"],
    "lat": "35",
    "long": "105"
  },
  {
    "id": "cxr",
    "name": "Christmas Island",
    "region": "asi",
    "cat": ["country"],
    "lat": "-10.5",
    "long": "105.6666667"
  },
  {
    "id": "cck",
    "name": "Cocos Island",
    "region": "asi",
    "cat": ["country"]
  },
  {
    "id": "col",
    "name": "Colombia",
    "region": "ame",
    "cat": ["country"],
    "lat": "4",
    "long": "-72"
  },
  {
    "id": "com",
    "name": "Comoros",
    "region": "afr",
    "cat": ["country"],
    "lat": "-12.16666666",
    "long": "44.25"
  },
  {
    "id": "cod",
    "name": "Dem. Rep. Congo",
    "region": "afr",
    "cat": ["country"]
  },
  {
    "id": "cog",
    "name": "Rep. Congo",
    "region": "afr",
    "cat": ["country"]
  },
  {
    "id": "cok",
    "name": "Cook Is",
    "region": "asi",
    "cat": ["country"]
  },
  {
    "id": "cri",
    "name": "Costa Rica",
    "region": "ame",
    "cat": ["country"],
    "lat": "10",
    "long": "-84"
  },
  {
    "id": "civ",
    "name": "Cote d'Ivoire",
    "region": "afr",
    "cat": ["country"]
  },
  {
    "id": "hrv",
    "name": "Croatia",
    "region": "eur",
    "cat": ["country"],
    "lat": "45.16666666",
    "long": "15.5"
  },
  {
    "id": "cub",
    "name": "Cuba",
    "region": "ame",
    "cat": ["country"],
    "lat": "21.5",
    "long": "-80"
  },
  {
    "id": "cyp",
    "name": "Cyprus",
    "region": "eur",
    "cat": ["country"],
    "lat": "35",
    "long": "33"
  },
  {
    "id": "cze",
    "name": "Czech Republic",
    "region": "eur",
    "cat": ["country"],
    "lat": "49.75",
    "long": "15.5"
  },
  {
    "id": "_csk",
    "name": "Czechoslovakia",
    "region": "eur",
    "cat": ["country"]
  },
  {
    "id": "dnk",
    "name": "Denmark",
    "region": "eur",
    "cat": ["country"],
    "lat": "56",
    "long": "1"
  },
  {
    "id": "dji",
    "name": "Djibouti",
    "region": "afr",
    "cat": ["country"],
    "lat": "11.5",
    "long": "43"
  },
  {
    "id": "dma",
    "name": "Dominica",
    "region": "ame",
    "cat": ["country"],
    "lat": "15.41666666",
    "long": "-61.33333333"
  },
  {
    "id": "dom",
    "name": "Dominican Republic",
    "region": "ame",
    "cat": ["country"],
    "lat": "19",
    "long": "-70.66666666"
  },
  {
    "id": "_ddr",
    "name": "East Germany",
    "region": "eur",
    "cat": ["country"]
  },
  {
    "id": "ecu",
    "name": "Ecuador",
    "region": "ame",
    "cat": ["country"],
    "lat": "-2",
    "long": "-77.5"
  },
  {
    "id": "egy",
    "name": "Egypt",
    "region": "afr",
    "cat": ["country"],
    "lat": "27",
    "long": "3"
  },
  {
    "id": "slv",
    "name": "El Salvador",
    "region": "ame",
    "cat": ["country"],
    "lat": "13.83333333",
    "long": "-88.91666666"
  },
  {
    "id": "gnq",
    "name": "Equatorial Guinea",
    "region": "afr",
    "cat": ["country"],
    "lat": "2",
    "long": "1"
  },
  {
    "id": "eri",
    "name": "Eritrea",
    "region": "afr",
    "cat": ["country"],
    "lat": "15",
    "long": "39"
  },
  {
    "id": "_eae",
    "name": "Eritrea and Ethiopia",
    "cat": ["country"]
  },
  {
    "id": "est",
    "name": "Estonia",
    "region": "eur",
    "cat": ["country"],
    "lat": "59",
    "long": "26"
  },
  {
    "id": "eth",
    "name": "Ethiopia",
    "region": "afr",
    "cat": ["country"],
    "lat": "8",
    "long": "38"
  },
  {
    "id": "fro",
    "name": "Faeroe Islands",
    "cat": ["country"]
  },
  {
    "id": "flk",
    "name": "Falkland Is (Malvinas)",
    "cat": ["country"]
  },
  {
    "id": "fji",
    "name": "Fiji",
    "region": "asi",
    "cat": ["country"],
    "lat": "-18",
    "long": "175"
  },
  {
    "id": "fin",
    "name": "Finland",
    "region": "eur",
    "cat": ["country"],
    "lat": "64",
    "long": "26"
  },
  {
    "id": "fra",
    "name": "France",
    "region": "eur",
    "cat": ["country"],
    "lat": "46",
    "long": "2"
  },
  {
    "id": "guf",
    "name": "French Guiana",
    "region": "ame",
    "cat": ["country"],
    "lat": "4",
    "long": "-53"
  },
  {
    "id": "pyf",
    "name": "French Polynesia",
    "region": "asi",
    "cat": ["country"]
  },
  {
    "id": "gab",
    "name": "Gabon",
    "region": "afr",
    "cat": ["country"],
    "lat": "-1",
    "long": "11.75"
  },
  {
    "id": "gmb",
    "name": "Gambia",
    "region": "afr",
    "cat": ["country"],
    "lat": "13.46666666",
    "long": "-16.56666666"
  },
  {
    "id": "geo",
    "name": "Georgia",
    "region": "eur",
    "cat": ["country"],
    "lat": "42",
    "long": "43.5"
  },
  {
    "id": "deu",
    "name": "Germany",
    "region": "eur",
    "cat": ["country"],
    "lat": "51",
    "long": "9"
  },
  {
    "id": "gha",
    "name": "Ghana",
    "region": "afr",
    "cat": ["country"],
    "lat": "8",
    "long": "-2"
  },
  {
    "id": "gib",
    "name": "Gibraltar",
    "region": "eur",
    "cat": ["country"],
    "lat": "36.13333333",
    "long": "-5.35"
  },
  {
    "id": "grc",
    "name": "Greece",
    "region": "eur",
    "cat": ["country"],
    "lat": "39",
    "long": "22"
  },
  {
    "id": "grl",
    "name": "Greenland",
    "region": "eur",
    "cat": ["country"],
    "lat": "72",
    "long": "-40"
  },
  {
    "id": "grd",
    "name": "Grenada",
    "region": "ame",
    "cat": ["country"],
    "lat": "12.11666666",
    "long": "-61.66666666"
  },
  {
    "id": "glp",
    "name": "Guadeloupe",
    "region": "ame",
    "cat": ["country"],
    "lat": "16.25",
    "long": "-61.583333"
  },
  {
    "id": "gum",
    "name": "Guam",
    "region": "asi",
    "cat": ["country"],
    "lat": "13.46666666",
    "long": "144.7833333"
  },
  {
    "id": "gtm",
    "name": "Guatemala",
    "region": "ame",
    "cat": ["country"],
    "lat": "15.5",
    "long": "-90.25"
  },
  {
    "id": "hos",
    "name": "Holy See",
    "region": "eur",
    "cat": ["country"]
  },
  {
    "id": "hkg",
    "name": "Hong Kong",
    "region": "China",
    "cat": ["country"]
  },
  {
    "name": "United Korea (former)",
    "cat": ["country"]
  },
  {
    "id": "_unk",
    "name": "Kosovo",
    "region": "eur",
    "cat": ["country"]
  },
  {
    "id": "kgz",
    "name": "Kyrgyz Republic",
    "cat": ["country"]
  },
  {
    "id": "lao",
    "name": "Lao",
    "region": "asi",
    "cat": ["country"]
  },
  {
    "id": "mac",
    "name": "Macao",
    "region": "China",
    "cat": ["country"]
  },
  {
    "id": "mkd",
    "name": "Macedonia",
    "region": "eur",
    "cat": ["country"]
  },
  {
    "id": "ant",
    "name": "Netherlands Antilles",
    "cat": ["country"]
  },
  {
    "id": "pry",
    "name": "Paraguay",
    "region": "ame",
    "cat": ["country"]
  },
  {
    "id": "per",
    "name": "Peru",
    "region": "ame",
    "cat": ["country"]
  },
  {
    "id": "pcn",
    "name": "Pitcairn",
    "region": "asi",
    "cat": ["country"]
  }
]
